[{
		"id": 1,
		"HospitalName": "Royal Brisbane and Women's Hospital",
		"availableDocks": 32,
		"totalDocks": 39,
		"latitude": -27.446927033801927,
		"longitude": 153.02846803604743,
		"statusValue": "In Service",
		"statusKey": 1,
		"availableBikes": 7,
		"stAddress1": "W 52 St & 11 Ave",
		"stAddress2": "",
		"city": "",
		"postalCode": "",
		"location": "",
		"altitude": "",
		"testStation": false,
		"lastCommunicationTime": "2016-01-22 04:30:15 PM",
		"landMark": ""
	}, {
		"id": 2,
		"HospitalName": "Mater Hospital Brisbane",
		"availableDocks": 0,
		"totalDocks": 33,
		"latitude": -27.484697529376117,
		"longitude": 153.02796371053938,
		"statusValue": "In Service",
		"statusKey": 1,
		"availableBikes": 33,
		"stAddress1": "Franklin St & W Broadway",
		"stAddress2": "",
		"city": "",
		"postalCode": "",
		"location": "",
		"altitude": "",
		"testStation": false,
		"lastCommunicationTime": "2016-01-22 04:32:41 PM",
		"landMark": ""
	}, {
		"id": 3,
		"HospitalName": "Royal Brisbane and Women's Hospital Emergency Room",
		"availableDocks": 0,
		"totalDocks": 33,
		"latitude": -27.445955938465108,
		"longitude": 153.0289087836243,
		"statusValue": "In Service",
		"statusKey": 1,
		"availableBikes": 33,
		"stAddress1": "Franklin St & W Broadway",
		"stAddress2": "",
		"city": "",
		"postalCode": "",
		"location": "",
		"altitude": "",
		"testStation": false,
		"lastCommunicationTime": "2016-01-22 04:32:41 PM",
		"landMark": ""
	}, {
		"id": 4,
		"HospitalName": " Brisbane Private Hospital",
		"availableDocks": 0,
		"totalDocks": 33,
		"latitude": -27.463254924544717,
		"longitude": 153.02254183468105,
		"statusValue": "In Service",
		"statusKey": 1,
		"availableBikes": 33,
		"stAddress1": "Franklin St & W Broadway",
		"stAddress2": "",
		"city": "",
		"postalCode": "",
		"location": "",
		"altitude": "",
		"testStation": false,
		"lastCommunicationTime": "2016-01-22 04:32:41 PM",
		"landMark": ""
	}, {
		"id": 5,
		"HospitalName": "Brisbane General Hospital Precinct",
		"availableDocks": 0,
		"totalDocks": 33,
		"latitude": -27.44787655711926,
		"longitude": 153.02732093960432,
		"statusValue": "In Service",
		"statusKey": 1,
		"availableBikes": 33,
		"stAddress1": "Franklin St & W Broadway",
		"stAddress2": "",
		"city": "",
		"postalCode": "",
		"location": "",
		"altitude": "",
		"testStation": false,
		"lastCommunicationTime": "2016-01-22 04:32:41 PM",
		"landMark": ""
	}, {
		"id": 6,
		"HospitalName": "Brisbane Private Hospital",
		"availableDocks": 0,
		"totalDocks": 33,
		"latitude": -27.492225800144116,
		"longitude": 153.04174245536475,
		"statusValue": "In Service",
		"statusKey": 1,
		"availableBikes": 33,
		"stAddress1": "Franklin St & W Broadway",
		"stAddress2": "",
		"city": "",
		"postalCode": "",
		"location": "",
		"altitude": "",
		"testStation": false,
		"lastCommunicationTime": "2016-01-22 04:32:41 PM",
		"landMark": ""
	}, {
		"id": 7,
		"HospitalName": "St Vincent's Private Hospital Brisbane",
		"availableDocks": 0,
		"totalDocks": 33,
		"latitude": -27.471670003814154,
		"longitude": 153.03458888703543,
		"statusValue": "In Service",
		"statusKey": 1,
		"availableBikes": 33,
		"stAddress1": "Franklin St & W Broadway",
		"stAddress2": "",
		"city": "",
		"postalCode": "",
		"location": "",
		"altitude": "",
		"testStation": false,
		"lastCommunicationTime": "2016-01-22 04:32:41 PM",
		"landMark": ""
	}, {
		"id": 8,
		"HospitalName": "South Bank Day Hospital",
		"availableDocks": 0,
		"totalDocks": 33,
		"latitude": -27.47326613498943,
		"longitude": 153.0152737818081,
		"statusValue": "In Service",
		"statusKey": 1,
		"availableBikes": 33,
		"stAddress1": "Franklin St & W Broadway",
		"stAddress2": "",
		"city": "",
		"postalCode": "",
		"location": "",
		"altitude": "",
		"testStation": false,
		"lastCommunicationTime": "2016-01-22 04:32:41 PM",
		"landMark": ""
	}, {
		"id": 9,
		"HospitalName": "South Bank Day Hospital",
		"availableDocks": 0,
		"totalDocks": 33,
		"latitude": -27.509666593194133,
		"longitude": 153.05313230787937,
		"statusValue": "In Service",
		"statusKey": 1,
		"availableBikes": 33,
		"stAddress1": "Franklin St & W Broadway",
		"stAddress2": "",
		"city": "",
		"postalCode": "",
		"location": "",
		"altitude": "",
		"testStation": false,
		"lastCommunicationTime": "2016-01-22 04:32:41 PM",
		"landMark": ""
	}, {
		"id": 10,
		"HospitalName": "Brisbane Scopes - Brisbane Private Hospital",
		"availableDocks": 0,
		"totalDocks": 33,
		"latitude": -27.464682879546533,
		"longitude": 153.02260446183996,
		"statusValue": "In Service",
		"statusKey": 1,
		"availableBikes": 33,
		"stAddress1": "Franklin St & W Broadway",
		"stAddress2": "",
		"city": "",
		"postalCode": "",
		"location": "",
		"altitude": "",
		"testStation": false,
		"lastCommunicationTime": "2016-01-22 04:32:41 PM",
		"landMark": ""
	}, {
		"id": 11,
		"HospitalName": "Queensland Children's Hospital",
		"availableDocks": 0,
		"totalDocks": 33,
		"latitude": -27.48316054295227,
		"longitude": 153.0264491083753,
		"statusValue": "In Service",
		"statusKey": 1,
		"availableBikes": 33,
		"stAddress1": "Franklin St & W Broadway",
		"stAddress2": "",
		"city": "",
		"postalCode": "",
		"location": "",
		"altitude": "",
		"testStation": false,
		"lastCommunicationTime": "2016-01-22 04:32:41 PM",
		"landMark": ""
	}]
